{
  "provinces": {
    "Hà Nội": { "lat": 21.0285, "lng": 105.8542, "region": "northern" },
    "Bắc Ninh": { "lat": 21.1861, "lng": 106.0763, "region": "northern" },
    "Phú Thọ": { "lat": 21.2681, "lng": 105.2045, "region": "northern" },
    "Vĩnh Phúc": { "lat": 21.3609, "lng": 105.5474, "region": "northern" },
    "Hải Dương": { "lat": 20.9373, "lng": 106.3148, "region": "northern" },
    "Hải Phòng": { "lat": 20.8449, "lng": 106.6881, "region": "northern" },
    "Hưng Yên": { "lat": 20.6464, "lng": 106.0511, "region": "northern" },
    "Thái Bình": { "lat": 20.4464, "lng": 106.3365, "region": "northern" },
    "Nam Định": { "lat": 20.4388, "lng": 106.1621, "region": "northern" },

    "Nghệ An": { "lat": 18.6740, "lng": 105.6819, "region": "central" },
    "Hà Tĩnh": { "lat": 18.3429, "lng": 105.9058, "region": "central" },
    "Quảng Bình": { "lat": 17.4675, "lng": 106.6220, "region": "central" },
    "Quảng Trị": { "lat": 16.7404, "lng": 107.1854, "region": "central" },
    "Thừa Thiên-Huế": { "lat": 16.4637, "lng": 107.5909, "region": "central" },
    "Huế": { "lat": 16.4637, "lng": 107.5909, "region": "central" },
    "Đà Nẵng": { "lat": 16.0544, "lng": 108.2022, "region": "central" },
    "Quảng Nam": { "lat": 15.5735, "lng": 108.0199, "region": "central" },
    "Quảng Ngãi": { "lat": 15.1214, "lng": 108.8044, "region": "central" },
    "Bình Định": { "lat": 13.7765, "lng": 109.2196, "region": "central" },
    "Phú Yên": { "lat": 13.0882, "lng": 109.0929, "region": "central" },
    "Khánh Hòa": { "lat": 12.2388, "lng": 109.1967, "region": "central" },

    "Đồng Tháp": { "lat": 10.4938, "lng": 105.6881, "region": "southern" },
    "An Giang": { "lat": 10.3861, "lng": 105.1258, "region": "southern" },
    "Cần Thơ": { "lat": 10.0452, "lng": 105.7469, "region": "southern" },
    "Bến Tre": { "lat": 10.2433, "lng": 106.3757, "region": "southern" },
    "Vĩnh Long": { "lat": 10.2397, "lng": 105.9571, "region": "southern" },
    "Tiền Giang": { "lat": 10.4493, "lng": 106.3420, "region": "southern" },
    "Sóc Trăng": { "lat": 9.6039, "lng": 105.9739, "region": "southern" },
    "Kiên Giang": { "lat": 10.0125, "lng": 105.0808, "region": "southern" },
    "Hồ Chí Minh": { "lat": 10.8231, "lng": 106.6297, "region": "southern" },

    "Đắk Lắk": { "lat": 12.7100, "lng": 108.2378, "region": "highland" },
    "Gia Lai": { "lat": 13.9830, "lng": 108.1092, "region": "highland" },
    "Lâm Đồng": { "lat": 11.5753, "lng": 108.1429, "region": "highland" },
    "Kon Tum": { "lat": 14.3497, "lng": 108.0005, "region": "highland" }
  },

  "regions": {
    "northern": {
      "name": "Northern Vietnam",
      "nameVi": "Miền Bắc",
      "color": "#3498DB",
      "description": "Characterized by refined, softer dynamics and high tessitura"
    },
    "central": {
      "name": "Central Vietnam",
      "nameVi": "Miền Trung",
      "color": "#27AE60",
      "description": "Known for powerful, rhythmic work songs and distinctive regional genres"
    },
    "southern": {
      "name": "Southern Vietnam",
      "nameVi": "Miền Nam",
      "color": "#E74C3C",
      "description": "Features softer, more melodic styles with influences from Mekong Delta"
    },
    "highland": {
      "name": "Highland/Ethnic Minorities",
      "nameVi": "Tây Nguyên",
      "color": "#9B59B6",
      "description": "Rich ethnic minority traditions with distinct musical systems"
    }
  }
}
